{
    "people": [
        {
            "id": "671bbd7be63a4dee9f0b546c",
            "is_admin": false,
            "name": "Bender Velez",
            "voicePart": "tenor",
            "email": "bendervelez@example.com",
            "phone": "+1 (932) 418-3106",
            "location": {
                "city": "Dallas",
                "state": "TX"
            },
            "choruses": []
        },
        {
            "id": "671bbd7bdae7c8700c743da7",
            "is_admin": false,
            "name": "Stanton Randall",
            "voicePart": "alto",
            "email": "stantonrandall@example.com",
            "phone": "+1 (978) 432-3937",
            "location": {
                "city": "Norfolk",
                "state": "VA"
            },
            "choruses": []
        },
        {
            "id": "671bbd7b3df3d897c8ddcffe",
            "is_admin": false,
            "name": "Lottie Turner",
            "voicePart": "bass",
            "email": "lottieturner@example.com",
            "phone": "+1 (981) 489-2824",
            "location": {
                "city": "New York",
                "state": "NY"
            },
            "choruses": []
        },
        {
            "id": "671bbd7b9206dd8be17ca32a",
            "is_admin": true,
            "name": "Hayden Johnson",
            "voicePart": "alto",
            "email": "haydenjohnson@example.com",
            "phone": "+1 (844) 519-3777",
            "location": {
                "city": "Charlotte",
                "state": "NC"
            },
            "choruses": []
        },
        {
            "id": "671bbd7b00a51fa7c5ad052e",
            "is_admin": true,
            "name": "Greene Landry",
            "voicePart": "bass",
            "email": "greenelandry@example.com",
            "phone": "+1 (813) 446-3621",
            "location": {
                "city": "Norfolk",
                "state": "VA"
            },
            "choruses": []
        },
        {
            "id": "671bbd7b4d44ff60f8e169cd",
            "is_admin": false,
            "name": "Whitaker Camacho",
            "voicePart": "soprano",
            "email": "whitakercamacho@example.com",
            "phone": "+1 (942) 505-2204",
            "location": {
                "city": "Dallas",
                "state": "TX"
            },
            "choruses": []
        },
        {
            "id": "671bbd7bd3c5fd005fdeb7e4",
            "is_admin": false,
            "name": "Dotson Odonnell",
            "voicePart": "soprano",
            "email": "dotsonodonnell@example.com",
            "phone": "+1 (907) 458-2884",
            "location": {
                "city": "Charlotte",
                "state": "NC"
            },
            "choruses": []
        },
        {
            "id": "671bbd7b26a8140625aa240b",
            "is_admin": false,
            "name": "Phyllis Owens",
            "voicePart": "soprano",
            "email": "phyllisowens@example.com",
            "phone": "+1 (901) 503-3161",
            "location": {
                "city": "Charlotte",
                "state": "NC"
            },
            "choruses": []
        },
        {
            "id": "671bbd7bcca932dc00feeaca",
            "is_admin": false,
            "name": "Dalton Benjamin",
            "voicePart": "tenor",
            "email": "daltonbenjamin@example.com",
            "phone": "+1 (900) 459-3186",
            "location": {
                "city": "Dallas",
                "state": "TX"
            },
            "choruses": []
        },
        {
            "id": "671bbd7b1f291f0748e3b9c1",
            "is_admin": false,
            "name": "Fields Mcdaniel",
            "voicePart": "alto",
            "email": "fieldsmcdaniel@example.com",
            "phone": "+1 (827) 531-3212",
            "location": {
                "city": "Madison",
                "state": "WI"
            },
            "choruses": []
        },
        {
            "id": "671bbd7b37a6d2c006a2393f",
            "is_admin": false,
            "name": "Mavis Nieves",
            "voicePart": "tenor",
            "email": "mavisnieves@example.com",
            "phone": "+1 (838) 535-2137",
            "location": {
                "city": "Madison",
                "state": "WI"
            },
            "choruses": []
        },
        {
            "id": "671bbd7b7c763989d12a4d62",
            "is_admin": false,
            "name": "Lynn Miranda",
            "voicePart": "soprano",
            "email": "lynnmiranda@example.com",
            "phone": "+1 (834) 515-3811",
            "location": {
                "city": "Dallas",
                "state": "TX"
            },
            "choruses": []
        },
        {
            "id": "671bbd7b4b83d4e7a65afd88",
            "is_admin": false,
            "name": "Alston Savage",
            "voicePart": "soprano",
            "email": "alstonsavage@example.com",
            "phone": "+1 (855) 426-3689",
            "location": {
                "city": "Dallas",
                "state": "TX"
            },
            "choruses": []
        },
        {
            "id": "671bbd7b602054885a508011",
            "is_admin": false,
            "name": "Lea Dale",
            "voicePart": "soprano",
            "email": "leadale@example.com",
            "phone": "+1 (939) 433-2193",
            "location": {
                "city": "Dallas",
                "state": "TX"
            },
            "choruses": []
        },
        {
            "id": "671bbd7b29c3a00540fdb3eb",
            "is_admin": false,
            "name": "Bobbie David",
            "voicePart": "alto",
            "email": "bobbiedavid@example.com",
            "phone": "+1 (904) 447-3950",
            "location": {
                "city": "New York",
                "state": "NY"
            },
            "choruses": []
        },
        {
            "id": "671bbd7b1d1b564aea100bf8",
            "is_admin": false,
            "name": "Dunn Melton",
            "voicePart": "alto",
            "email": "dunnmelton@example.com",
            "phone": "+1 (920) 539-2252",
            "location": {
                "city": "Dallas",
                "state": "TX"
            },
            "choruses": []
        },
        {
            "id": "671bbd7b454655be27838508",
            "is_admin": false,
            "name": "Patton Dodson",
            "voicePart": "soprano",
            "email": "pattondodson@example.com",
            "phone": "+1 (983) 577-2422",
            "location": {
                "city": "Madison",
                "state": "WI"
            },
            "choruses": []
        },
        {
            "id": "671bbd7bec453e94598c0e91",
            "is_admin": false,
            "name": "Katharine Orr",
            "voicePart": "tenor",
            "email": "katharineorr@example.com",
            "phone": "+1 (863) 420-2212",
            "location": {
                "city": "Charlotte",
                "state": "NC"
            },
            "choruses": []
        },
        {
            "id": "671bbd7b4f6fd548da697303",
            "is_admin": false,
            "name": "Richards Nixon",
            "voicePart": "bass",
            "email": "richardsnixon@example.com",
            "phone": "+1 (974) 537-2000",
            "location": {
                "city": "New York",
                "state": "NY"
            },
            "choruses": []
        },
        {
            "id": "671bbd7b012fac451f15afc9",
            "is_admin": false,
            "name": "Cathryn Mcneil",
            "voicePart": "soprano",
            "email": "cathrynmcneil@example.com",
            "phone": "+1 (800) 550-2156",
            "location": {
                "city": "Norfolk",
                "state": "VA"
            },
            "choruses": []
        }
    ],
    "choruses": [
        {
            "id": "671bc0070b2b9c7a70caf334",
            "name": "Community Choir",
            "description": "Deserunt ex exercitation anim velit dolore qui amet occaecat.",
            "contactEmail": "hansonmatthews@example.com",
            "location": {
                "city": "Norfolk",
                "state": "VA"
            },
            "members": []
        },
        {
            "id": "671bc007117bf0b9518cbdf7",
            "name": "Barbershop Folks",
            "description": "Reprehenderit pariatur dolore in fugiat Lorem aliqua consectetur et dolore reprehenderit sunt aute.",
            "contactEmail": "tylerreese@example.com",
            "location": {
                "city": "Dallas",
                "state": "TX"
            },
            "members": []
        },
        {
            "id": "671bc007e5a5648e3d329b8c",
            "name": "Barbershop Folks",
            "description": "Ex consequat minim mollit dolor enim voluptate.",
            "contactEmail": "hooverreed@example.com",
            "location": {
                "city": "Charlotte",
                "state": "NC"
            },
            "members": []
        },
        {
            "id": "671bc0072a6c6413079e8ea7",
            "name": "Barbershop Folks",
            "description": "Quis aliquip nisi nostrud velit occaecat excepteur irure duis dolor ullamco commodo mollit enim aliqua.",
            "contactEmail": "fletcherflynn@example.com",
            "location": {
                "city": "Norfolk",
                "state": "VA"
            },
            "members": []
        },
        {
            "id": "671bc0070703e268ebeddee9",
            "name": "Community Choir",
            "description": "Qui elit et nulla nisi laborum qui anim quis consectetur velit.",
            "contactEmail": "solomononeil@example.com",
            "location": {
                "city": "Norfolk",
                "state": "VA"
            },
            "members": []
        },
        {
            "id": "671bc007702bddc66d1dfe17",
            "name": "City Symphonic Chorus",
            "description": "Cupidatat ad amet ad veniam eu nisi laborum minim anim laborum excepteur.",
            "contactEmail": "sandovalspencer@example.com",
            "location": {
                "city": "Dallas",
                "state": "TX"
            },
            "members": []
        },
        {
            "id": "671bc00714c8e6a0e50c9e4b",
            "name": "Barbershop Folks",
            "description": "Mollit ipsum sint cupidatat nulla id cupidatat esse culpa velit commodo id.",
            "contactEmail": "mablebowman@example.com",
            "location": {
                "city": "Madison",
                "state": "WI"
            },
            "members": []
        },
        {
            "id": "671bc007d5cf40ff0f27e530",
            "name": "Community Choir",
            "description": "Eu magna culpa ex proident commodo quis consectetur cupidatat nostrud aute.",
            "contactEmail": "pattihoover@example.com",
            "location": {
                "city": "Dallas",
                "state": "TX"
            },
            "members": []
        },
        {
            "id": "671bc007b5b61f944743d436",
            "name": "Barbershop Folks",
            "description": "Cillum reprehenderit veniam proident nulla sunt dolor minim laborum commodo labore occaecat ea nulla quis.",
            "contactEmail": "hillaryduffy@example.com",
            "location": {
                "city": "Charlotte",
                "state": "NC"
            },
            "members": []
        },
        {
            "id": "671bc007979f31938683f233",
            "name": "Barbershop Folks",
            "description": "Sit elit et adipisicing irure id laboris aliquip in sit nostrud.",
            "contactEmail": "cotehodges@example.com",
            "location": {
                "city": "New York",
                "state": "NY"
            },
            "members": []
        },
        {
            "id": "671bc007d39b568d7c6ac756",
            "name": "Chamber Singers",
            "description": "In dolor non non incididunt deserunt irure Lorem incididunt proident consequat.",
            "contactEmail": "kempfulton@example.com",
            "location": {
                "city": "Madison",
                "state": "WI"
            },
            "members": []
        },
        {
            "id": "671bc007af1f5198cf172ff5",
            "name": "Barbershop Folks",
            "description": "Laborum sint aliquip ipsum excepteur.",
            "contactEmail": "salazarwoodard@example.com",
            "location": {
                "city": "Madison",
                "state": "WI"
            },
            "members": []
        },
        {
            "id": "671bc00748433eeb5bebe232",
            "name": "Chamber Singers",
            "description": "Do consectetur ullamco reprehenderit id tempor duis.",
            "contactEmail": "yatescarter@example.com",
            "location": {
                "city": "Charlotte",
                "state": "NC"
            },
            "members": []
        },
        {
            "id": "671bc007e5f468b92c94d439",
            "name": "City Symphonic Chorus",
            "description": "Adipisicing anim sit irure mollit nisi pariatur.",
            "contactEmail": "rachelgarrett@example.com",
            "location": {
                "city": "New York",
                "state": "NY"
            },
            "members": []
        },
        {
            "id": "671bc0076b6aab087850dbef",
            "name": "Community Choir",
            "description": "Incididunt elit adipisicing aute cupidatat aliqua.",
            "contactEmail": "earlenehill@example.com",
            "location": {
                "city": "Dallas",
                "state": "TX"
            },
            "members": []
        },
        {
            "id": "671bc00737acd3572d3c6eac",
            "name": "Community Choir",
            "description": "Excepteur reprehenderit veniam eiusmod adipisicing nisi sint eiusmod excepteur sunt ad esse et nulla duis.",
            "contactEmail": "rondamcmillan@example.com",
            "location": {
                "city": "Charlotte",
                "state": "NC"
            },
            "members": []
        },
        {
            "id": "671bc007c84dac2ffad7d535",
            "name": "Community Choir",
            "description": "Est eiusmod sit sunt laboris ea dolor elit anim sint.",
            "contactEmail": "carmelafranco@example.com",
            "location": {
                "city": "New York",
                "state": "NY"
            },
            "members": []
        },
        {
            "id": "671bc00728ef583c0dba19a2",
            "name": "City Symphonic Chorus",
            "description": "Irure tempor culpa qui nostrud adipisicing aliqua aute ipsum.",
            "contactEmail": "consuelokaufman@example.com",
            "location": {
                "city": "Madison",
                "state": "WI"
            },
            "members": []
        },
        {
            "id": "671bc007cc627344cb263f94",
            "name": "Community Choir",
            "description": "Occaecat deserunt ut proident quis exercitation.",
            "contactEmail": "rhondamullen@example.com",
            "location": {
                "city": "New York",
                "state": "NY"
            },
            "members": []
        },
        {
            "id": "671bc00741c7d3fbe67156d8",
            "name": "Chamber Singers",
            "description": "Ullamco nulla amet fugiat do.",
            "contactEmail": "junewilkinson@example.com",
            "location": {
                "city": "Charlotte",
                "state": "NC"
            },
            "members": []
        }
    ]
}